[
  {
    "city": "New York",
    "country": "United States",
    "center": [
      -73.9857,
      40.7484
    ],
    "trustedCoords": true,
    "spots": [
      {
        "id": "statue-of-liberty",
        "title": "Statue of Liberty",
        "vibes": [
          "classics"
        ],
        "kind": "Landmark",
        "area": "Liberty Island",
        "hours": "Daily 8:30 AM - 4:00 PM (ferry dependent)",
        "tags": [
          "Iconic",
          "Historic"
        ],
        "description": "Rising 305 feet above New York Harbor, the Statue of Liberty has welcomed generations of immigrants and travelers as a global symbol of freedom.",
        "lat": 40.6892,
        "lng": -74.0445,
        "nearby": [
          {
            "title": "Battery Park",
            "kind": "Park",
            "mins": 35,
            "lat": 40.7033,
            "lng": -74.017
          },
          {
            "title": "Castle Clinton National Monument",
            "kind": "Historic Fort",
            "mins": 35,
            "lat": 40.7032,
            "lng": -74.017
          },
          {
            "title": "SeaGlass Carousel",
            "kind": "Attraction",
            "mins": 35,
            "lat": 40.7024,
            "lng": -74.0166
          },
          {
            "title": "Pier A Harbor House",
            "kind": "Restaurant & Bar",
            "mins": 34,
            "lat": 40.7027,
            "lng": -74.0175
          },
          {
            "title": "Staten Island Ferry Terminal",
            "kind": "Transit & Viewpoint",
            "mins": 36,
            "lat": 40.7013,
            "lng": -74.0138
          },
          {
            "title": "Fraunces Tavern",
            "kind": "Historic Tavern & Restaurant",
            "mins": 40,
            "lat": 40.7034,
            "lng": -74.011
          },
          {
            "title": "The Skyscraper Museum",
            "kind": "Museum",
            "mins": 37,
            "lat": 40.7051,
            "lng": -74.0169
          },
          {
            "title": "Wagner Park",
            "kind": "Park",
            "mins": 36,
            "lat": 40.7048,
            "lng": -74.0175
          },
          {
            "title": "Brookfield Place",
            "kind": "Shopping & Food Hall",
            "mins": 47,
            "lat": 40.715,
            "lng": -74.0154
          }
        ]
      },
      {
        "id": "empire-state-building",
        "title": "Empire State Building",
        "vibes": [
          "classics"
        ],
        "kind": "Landmark",
        "area": "New York",
        "hours": "Daily 9:00 AM - 1:00 AM (last elevator 12:15 AM)",
        "tags": [
          "Observation Deck",
          "Art Deco"
        ],
        "description": "An Art Deco masterpiece completed in 1931, the Empire State Building held the title of world's tallest building for nearly four decades.",
        "lat": 40.7484,
        "lng": -73.9857,
        "nearby": [
          {
            "title": "Macy's Herald Square",
            "kind": "Department Store",
            "mins": 5,
            "lat": 40.7505,
            "lng": -73.9895
          },
          {
            "title": "Eataly NYC Flatiron",
            "kind": "Food Hall",
            "mins": 10,
            "lat": 40.742,
            "lng": -73.9903
          },
          {
            "title": "Ace Hotel New York (Stumptown Lobby Cafe)",
            "kind": "Hotel Lobby Cafe",
            "mins": 5,
            "lat": 40.7451,
            "lng": -73.9885
          },
          {
            "title": "The NoMad Bar",
            "kind": "Cocktail Bar",
            "mins": 7,
            "lat": 40.744,
            "lng": -73.9895
          },
          {
            "title": "Madison Square Park",
            "kind": "Park",
            "mins": 9,
            "lat": 40.7424,
            "lng": -73.9877
          },
          {
            "title": "Shake Shack (Madison Square Park)",
            "kind": "Fast Casual",
            "mins": 10,
            "lat": 40.7415,
            "lng": -73.9883
          },
          {
            "title": "Kinokuniya Bookstore",
            "kind": "Bookstore",
            "mins": 9,
            "lat": 40.7546,
            "lng": -73.984
          },
          {
            "title": "Her Name Is Han (Koreatown)",
            "kind": "Korean Restaurant",
            "mins": 2,
            "lat": 40.7472,
            "lng": -73.9847
          },
          {
            "title": "Eleven Madison Park",
            "kind": "Fine Dining",
            "mins": 9,
            "lat": 40.742,
            "lng": -73.9871
          },
          {
            "title": "ABC Carpet & Home",
            "kind": "Home Goods Store",
            "mins": 16,
            "lat": 40.7376,
            "lng": -73.9899
          },
          {
            "title": "Rizzoli Bookstore",
            "kind": "Bookstore",
            "mins": 10,
            "lat": 40.7418,
            "lng": -73.9895
          },
          {
            "title": "The Strand Book Store",
            "kind": "Independent Bookstore",
            "mins": 22,
            "lat": 40.7332,
            "lng": -73.991
          },
          {
            "title": "Union Square Greenmarket",
            "kind": "Farmers Market",
            "mins": 17,
            "lat": 40.7368,
            "lng": -73.9903
          }
        ]
      },
      {
        "id": "central-park",
        "title": "Central Park",
        "vibes": [
          "classics"
        ],
        "kind": "Park",
        "area": "Central Park",
        "hours": "Daily 6:00 AM - 1:00 AM",
        "tags": [
          "Green Space",
          "Historic"
        ],
        "description": "Spanning 843 acres from 59th to 110th Street, Central Park was the first landscaped public park in the United States and remains the green heart of Manhattan.",
        "lat": 40.7829,
        "lng": -73.9654,
        "nearby": [
          {
            "title": "Loeb Boathouse",
            "kind": "Restaurant",
            "mins": 10,
            "lat": 40.7764,
            "lng": -73.9689
          },
          {
            "title": "Central Park Zoo",
            "kind": "Zoo",
            "mins": 22,
            "lat": 40.7678,
            "lng": -73.9718
          },
          {
            "title": "Strawberry Fields",
            "kind": "Memorial Garden",
            "mins": 15,
            "lat": 40.7757,
            "lng": -73.9755
          },
          {
            "title": "Bow Bridge & The Lake",
            "kind": "Landmark",
            "mins": 12,
            "lat": 40.7752,
            "lng": -73.9713
          },
          {
            "title": "Bethesda Terrace & Fountain",
            "kind": "Landmark",
            "mins": 13,
            "lat": 40.7743,
            "lng": -73.9707
          },
          {
            "title": "Levain Bakery",
            "kind": "Bakery",
            "mins": 16,
            "lat": 40.7796,
            "lng": -73.9799
          },
          {
            "title": "Serendipity 3",
            "kind": "Dessert Restaurant",
            "mins": 30,
            "lat": 40.7614,
            "lng": -73.9666
          },
          {
            "title": "Central Park Carousel",
            "kind": "Attraction",
            "mins": 18,
            "lat": 40.7714,
            "lng": -73.9739
          },
          {
            "title": "The Mall & Literary Walk",
            "kind": "Promenade",
            "mins": 15,
            "lat": 40.7736,
            "lng": -73.9718
          },
          {
            "title": "Central Park Conservatory Garden",
            "kind": "Garden",
            "mins": 20,
            "lat": 40.7938,
            "lng": -73.9531
          }
        ]
      },
      {
        "id": "brooklyn-bridge",
        "title": "Brooklyn Bridge",
        "vibes": [
          "classics"
        ],
        "kind": "Landmark",
        "area": "Brooklyn Bridge",
        "hours": "Open 24 hours (pedestrian walkway)",
        "tags": [
          "Architecture",
          "Scenic Walk"
        ],
        "description": "Completed in 1883, the Brooklyn Bridge was the longest suspension bridge in the world at the time and remains one of New York's most photographed structures.",
        "lat": 40.7061,
        "lng": -73.9969,
        "nearby": [
          {
            "title": "Brooklyn Bridge Park",
            "kind": "Waterfront Park",
            "mins": 8,
            "lat": 40.7,
            "lng": -73.9967
          },
          {
            "title": "Time Out Market New York",
            "kind": "Food Hall",
            "mins": 9,
            "lat": 40.7024,
            "lng": -73.9903
          },
          {
            "title": "Almondine Bakery",
            "kind": "Bakery",
            "mins": 8,
            "lat": 40.7028,
            "lng": -73.9908
          },
          {
            "title": "Jacques Torres Chocolate",
            "kind": "Chocolate Shop",
            "mins": 8,
            "lat": 40.7028,
            "lng": -73.9902
          },
          {
            "title": "Usagi NY",
            "kind": "Cafe & Gallery",
            "mins": 9,
            "lat": 40.7034,
            "lng": -73.9887
          },
          {
            "title": "Brooklyn Ice Cream Factory",
            "kind": "Ice Cream Shop",
            "mins": 5,
            "lat": 40.7028,
            "lng": -73.9942
          },
          {
            "title": "Empire Stores",
            "kind": "Shopping & Dining Complex",
            "mins": 8,
            "lat": 40.7027,
            "lng": -73.9904
          },
          {
            "title": "St. Ann's Warehouse",
            "kind": "Performing Arts Venue",
            "mins": 8,
            "lat": 40.7024,
            "lng": -73.9908
          },
          {
            "title": "Brooklyn Roasting Company",
            "kind": "Coffee Roaster",
            "mins": 12,
            "lat": 40.7024,
            "lng": -73.9865
          }
        ]
      },
      {
        "id": "the-metropolitan-museum-of-art",
        "title": "The Metropolitan Museum of Art",
        "vibes": [
          "classics"
        ],
        "kind": "Museum",
        "area": "New York",
        "hours": "Sun-Tue, Thu 10 AM-5 PM; Fri-Sat 10 AM-9 PM; Closed Wed",
        "tags": [
          "Art",
          "World Culture"
        ],
        "description": "Known simply as the Met, this is North America's largest art museum, housing over two million works spanning 5,000 years of human creativity.",
        "lat": 40.7794,
        "lng": -73.9632,
        "nearby": [
          {
            "title": "The Frick Collection",
            "kind": "Art Museum",
            "mins": 12,
            "lat": 40.7714,
            "lng": -73.9673
          },
          {
            "title": "Neue Galerie & Cafe Sabarsky",
            "kind": "Art Museum & Cafe",
            "mins": 5,
            "lat": 40.7823,
            "lng": -73.9598
          },
          {
            "title": "Corner Bookstore",
            "kind": "Independent Bookstore",
            "mins": 13,
            "lat": 40.7862,
            "lng": -73.9553
          },
          {
            "title": "Solomon R. Guggenheim Museum",
            "kind": "Art Museum",
            "mins": 7,
            "lat": 40.783,
            "lng": -73.959
          },
          {
            "title": "Bemelmans Bar (The Carlyle)",
            "kind": "Piano Bar",
            "mins": 7,
            "lat": 40.7742,
            "lng": -73.9636
          },
          {
            "title": "Central Park Conservatory Garden",
            "kind": "Garden",
            "mins": 23,
            "lat": 40.7938,
            "lng": -73.9531
          },
          {
            "title": "Cooper Hewitt, Smithsonian Design Museum",
            "kind": "Design Museum",
            "mins": 7,
            "lat": 40.783,
            "lng": -73.9587
          },
          {
            "title": "Ralph's Coffee (Ralph Lauren)",
            "kind": "Cafe",
            "mins": 9,
            "lat": 40.7729,
            "lng": -73.9647
          }
        ]
      },
      {
        "id": "times-square",
        "title": "Times Square",
        "vibes": [
          "classics"
        ],
        "kind": "Landmark",
        "area": "Times Square",
        "hours": "Open 24 hours",
        "tags": [
          "Iconic",
          "Entertainment"
        ],
        "description": "The neon heart of the Theater District, Times Square is one of the most visited intersections on earth, wrapped in oversized billboards, Broadway marquees, and a constant flow of tourists and performers.",
        "lat": 40.758,
        "lng": -73.9855,
        "nearby": [
          {
            "title": "Bryant Park",
            "kind": "Park",
            "mins": 7,
            "lat": 40.7536,
            "lng": -73.9832
          },
          {
            "title": "New York Public Library — Stephen A. Schwarzman Building",
            "kind": "Library",
            "mins": 8,
            "lat": 40.7532,
            "lng": -73.9822
          },
          {
            "title": "Drama Book Shop",
            "kind": "Bookstore",
            "mins": 9,
            "lat": 40.7537,
            "lng": -73.9917
          },
          {
            "title": "Sardi's",
            "kind": "Restaurant",
            "mins": 1,
            "lat": 40.758,
            "lng": -73.9868
          },
          {
            "title": "Junior's Cheesecake (Times Square)",
            "kind": "Dessert Restaurant",
            "mins": 1,
            "lat": 40.758,
            "lng": -73.9857
          },
          {
            "title": "TKTS Booth, Duffy Square",
            "kind": "Ticket Booth",
            "mins": 2,
            "lat": 40.758,
            "lng": -73.984
          },
          {
            "title": "Radio City Music Hall",
            "kind": "Performance Venue",
            "mins": 6,
            "lat": 40.76,
            "lng": -73.98
          },
          {
            "title": "Gotham West Market",
            "kind": "Food Hall",
            "mins": 14,
            "lat": 40.7649,
            "lng": -73.9955
          },
          {
            "title": "Museum of Broadway",
            "kind": "Museum",
            "mins": 1,
            "lat": 40.7576,
            "lng": -73.9847
          }
        ]
      },
      {
        "id": "grand-central-terminal",
        "title": "Grand Central Terminal",
        "vibes": [
          "classics"
        ],
        "kind": "Landmark",
        "area": "New York",
        "hours": "Daily 5:30 AM - 2:00 AM",
        "tags": [
          "Beaux-Arts",
          "Transit Hub"
        ],
        "description": "Opened in 1913, Grand Central Terminal is a Beaux-Arts masterpiece as much as it is a working transit hub.",
        "lat": 40.7527,
        "lng": -73.9772,
        "nearby": [
          {
            "title": "Bryant Park",
            "kind": "Park",
            "mins": 6,
            "lat": 40.7536,
            "lng": -73.9832
          },
          {
            "title": "The Campbell",
            "kind": "Cocktail Bar",
            "mins": 1,
            "lat": 40.7521,
            "lng": -73.9776
          },
          {
            "title": "Grand Central Market",
            "kind": "Food Market",
            "mins": 1,
            "lat": 40.7524,
            "lng": -73.9776
          },
          {
            "title": "Grand Central Oyster Bar & Whispering Gallery",
            "kind": "Restaurant",
            "mins": 1,
            "lat": 40.7522,
            "lng": -73.9773
          },
          {
            "title": "Chrysler Building",
            "kind": "Landmark",
            "mins": 2,
            "lat": 40.7516,
            "lng": -73.9755
          },
          {
            "title": "Argosy Book Store",
            "kind": "Antiquarian Bookstore",
            "mins": 18,
            "lat": 40.7638,
            "lng": -73.9691
          },
          {
            "title": "Urbanspace Vanderbilt",
            "kind": "Food Hall",
            "mins": 2,
            "lat": 40.7538,
            "lng": -73.9776
          },
          {
            "title": "Ground Central Coffee Company",
            "kind": "Coffee Shop",
            "mins": 2,
            "lat": 40.7519,
            "lng": -73.9788
          }
        ]
      },
      {
        "id": "top-of-the-rock-observation-deck",
        "title": "Top of the Rock Observation Deck",
        "vibes": [
          "classics"
        ],
        "kind": "Observation Deck",
        "area": "New York",
        "hours": "Daily 8:00 AM - 12:00 AM (last entry 11:15 PM)",
        "tags": [
          "Skyline View",
          "Rockefeller Center"
        ],
        "description": "Perched 850 feet above Rockefeller Center, Top of the Rock offers what many consider the best skyline view in Manhattan, largely because it includes the Empire State Building itself in the frame.",
        "lat": 40.7592,
        "lng": -73.9787,
        "nearby": [
          {
            "title": "Radio City Music Hall",
            "kind": "Performance Venue",
            "mins": 2,
            "lat": 40.76,
            "lng": -73.98
          },
          {
            "title": "Rockefeller Plaza Ice Rink & Channel Gardens",
            "kind": "Landmark Plaza",
            "mins": 1,
            "lat": 40.7587,
            "lng": -73.9787
          },
          {
            "title": "Museum of Modern Art (MoMA)",
            "kind": "Art Museum",
            "mins": 3,
            "lat": 40.7614,
            "lng": -73.9776
          },
          {
            "title": "Saks Fifth Avenue",
            "kind": "Department Store",
            "mins": 4,
            "lat": 40.7592,
            "lng": -73.9749
          },
          {
            "title": "Tiffany & Co. Fifth Avenue Flagship",
            "kind": "Jewelry Store",
            "mins": 9,
            "lat": 40.7638,
            "lng": -73.9733
          },
          {
            "title": "Blue Bottle Coffee (Rockefeller Concourse)",
            "kind": "Coffee Shop",
            "mins": 1,
            "lat": 40.7589,
            "lng": -73.9787
          },
          {
            "title": "NBC Studio Tour",
            "kind": "Guided Tour",
            "mins": 1,
            "lat": 40.759,
            "lng": -73.9787
          }
        ]
      },
      {
        "id": "9-11-memorial-museum",
        "title": "9/11 Memorial & Museum",
        "vibes": [
          "classics"
        ],
        "kind": "Memorial",
        "area": "New York",
        "hours": "Memorial daily 7:30 AM-9 PM; Museum daily 9 AM-8 PM",
        "tags": [
          "Historic",
          "Moving"
        ],
        "description": "Two enormous reflecting pools mark the footprints of the original Twin Towers, their edges inscribed with the names of nearly 3,000 victims of the September 11 and 1993 attacks.",
        "lat": 40.7115,
        "lng": -74.0134,
        "nearby": [
          {
            "title": "Brookfield Place",
            "kind": "Shopping & Food Hall",
            "mins": 5,
            "lat": 40.715,
            "lng": -74.0154
          },
          {
            "title": "Stone Street Historic District",
            "kind": "Historic District",
            "mins": 11,
            "lat": 40.7038,
            "lng": -74.0111
          },
          {
            "title": "Trinity Church",
            "kind": "Historic Church",
            "mins": 5,
            "lat": 40.7081,
            "lng": -74.0119
          },
          {
            "title": "Federal Hall National Memorial",
            "kind": "Historic Site",
            "mins": 7,
            "lat": 40.7071,
            "lng": -74.0104
          },
          {
            "title": "Tin Building by Jean-Georges",
            "kind": "Food Hall",
            "mins": 13,
            "lat": 40.7062,
            "lng": -74.0034
          },
          {
            "title": "The Dead Rabbit",
            "kind": "Cocktail Bar",
            "mins": 12,
            "lat": 40.7033,
            "lng": -74.0116
          },
          {
            "title": "Oculus at Westfield World Trade Center",
            "kind": "Shopping & Transit Hub",
            "mins": 4,
            "lat": 40.7115,
            "lng": -74.0099
          },
          {
            "title": "Cafe Grumpy (Stone Street)",
            "kind": "Coffee Shop",
            "mins": 11,
            "lat": 40.7039,
            "lng": -74.0112
          },
          {
            "title": "South Street Seaport",
            "kind": "Historic Waterfront District",
            "mins": 12,
            "lat": 40.7075,
            "lng": -74.0034
          }
        ]
      },
      {
        "id": "one-world-observatory",
        "title": "One World Observatory",
        "vibes": [
          "classics"
        ],
        "kind": "Observation Deck",
        "area": "New York",
        "hours": "Daily 9:00 AM - 8:00 PM (seasonal)",
        "tags": [
          "Tallest Building",
          "Skyline View"
        ],
        "description": "Occupying the top floors of One World Trade Center, the tallest building in the Western Hemisphere, One World Observatory opens with a rapid Sky Pod elevator ride narrated by a time-lapse of New York's changing skyline since the 1500s.",
        "lat": 40.7127,
        "lng": -74.0134,
        "nearby": [
          {
            "title": "Brookfield Place",
            "kind": "Shopping & Food Hall",
            "mins": 4,
            "lat": 40.715,
            "lng": -74.0154
          },
          {
            "title": "Stone Street Historic District",
            "kind": "Historic District",
            "mins": 13,
            "lat": 40.7038,
            "lng": -74.0111
          },
          {
            "title": "Trinity Church",
            "kind": "Historic Church",
            "mins": 7,
            "lat": 40.7081,
            "lng": -74.0119
          },
          {
            "title": "Federal Hall National Memorial",
            "kind": "Historic Site",
            "mins": 8,
            "lat": 40.7071,
            "lng": -74.0104
          },
          {
            "title": "Tin Building by Jean-Georges",
            "kind": "Food Hall",
            "mins": 14,
            "lat": 40.7062,
            "lng": -74.0034
          },
          {
            "title": "The Dead Rabbit",
            "kind": "Cocktail Bar",
            "mins": 13,
            "lat": 40.7033,
            "lng": -74.0116
          },
          {
            "title": "Oculus at Westfield World Trade Center",
            "kind": "Shopping & Transit Hub",
            "mins": 4,
            "lat": 40.7115,
            "lng": -74.0099
          },
          {
            "title": "Cafe Grumpy (Stone Street)",
            "kind": "Coffee Shop",
            "mins": 12,
            "lat": 40.7039,
            "lng": -74.0112
          },
          {
            "title": "South Street Seaport",
            "kind": "Historic Waterfront District",
            "mins": 13,
            "lat": 40.7075,
            "lng": -74.0034
          }
        ]
      },
      {
        "id": "wall-street-charging-bull",
        "title": "Wall Street & Charging Bull",
        "vibes": [
          "classics"
        ],
        "kind": "Landmark",
        "area": "Bowling Green",
        "hours": "Open 24 hours (outdoor)",
        "tags": [
          "Financial District",
          "Photo Spot"
        ],
        "description": "Wall Street has been synonymous with American finance since the Dutch built an actual wooden wall along this line in the 1650s.",
        "lat": 40.7056,
        "lng": -74.0134,
        "nearby": [
          {
            "title": "Brookfield Place",
            "kind": "Shopping & Food Hall",
            "mins": 13,
            "lat": 40.715,
            "lng": -74.0154
          },
          {
            "title": "Stone Street Historic District",
            "kind": "Historic District",
            "mins": 3,
            "lat": 40.7038,
            "lng": -74.0111
          },
          {
            "title": "Trinity Church",
            "kind": "Historic Church",
            "mins": 4,
            "lat": 40.7081,
            "lng": -74.0119
          },
          {
            "title": "Federal Hall National Memorial",
            "kind": "Historic Site",
            "mins": 4,
            "lat": 40.7071,
            "lng": -74.0104
          },
          {
            "title": "Tin Building by Jean-Georges",
            "kind": "Food Hall",
            "mins": 11,
            "lat": 40.7062,
            "lng": -74.0034
          },
          {
            "title": "The Dead Rabbit",
            "kind": "Cocktail Bar",
            "mins": 4,
            "lat": 40.7033,
            "lng": -74.0116
          },
          {
            "title": "Oculus at Westfield World Trade Center",
            "kind": "Shopping & Transit Hub",
            "mins": 9,
            "lat": 40.7115,
            "lng": -74.0099
          },
          {
            "title": "Cafe Grumpy (Stone Street)",
            "kind": "Coffee Shop",
            "mins": 3,
            "lat": 40.7039,
            "lng": -74.0112
          },
          {
            "title": "South Street Seaport",
            "kind": "Historic Waterfront District",
            "mins": 11,
            "lat": 40.7075,
            "lng": -74.0034
          }
        ]
      },
      {
        "id": "american-museum-of-natural-history",
        "title": "American Museum of Natural History",
        "vibes": [
          "classics"
        ],
        "kind": "Museum",
        "area": "New York",
        "hours": "Daily 10:00 AM - 5:30 PM",
        "tags": [
          "Dinosaurs",
          "Family Favorite"
        ],
        "description": "One of the largest natural history museums in the world, the AMNH is best known for its dinosaur halls, the 94-foot blue whale suspended over the Milstein Hall of Ocean Life, and the Rose Center for Earth and Space with its striking glas…",
        "lat": 40.7813,
        "lng": -73.974,
        "nearby": [
          {
            "title": "Levain Bakery",
            "kind": "Bakery",
            "mins": 7,
            "lat": 40.7796,
            "lng": -73.9799
          },
          {
            "title": "Zabar's",
            "kind": "Specialty Food Market",
            "mins": 9,
            "lat": 40.7874,
            "lng": -73.9754
          },
          {
            "title": "Westsider Books",
            "kind": "Used Bookstore",
            "mins": 9,
            "lat": 40.7877,
            "lng": -73.9758
          },
          {
            "title": "Barney Greengrass",
            "kind": "Deli",
            "mins": 8,
            "lat": 40.7871,
            "lng": -73.9761
          },
          {
            "title": "Lincoln Center",
            "kind": "Performing Arts Complex",
            "mins": 16,
            "lat": 40.7725,
            "lng": -73.9835
          },
          {
            "title": "Riverside Park",
            "kind": "Park",
            "mins": 21,
            "lat": 40.7959,
            "lng": -73.9789
          },
          {
            "title": "The Dakota (Exterior Viewing)",
            "kind": "Landmark Building",
            "mins": 7,
            "lat": 40.7767,
            "lng": -73.9761
          },
          {
            "title": "Beacon Theatre",
            "kind": "Performance Venue",
            "mins": 9,
            "lat": 40.7794,
            "lng": -73.9817
          },
          {
            "title": "Jacob's Pickles",
            "kind": "Restaurant",
            "mins": 8,
            "lat": 40.7869,
            "lng": -73.9762
          }
        ]
      },
      {
        "id": "flatiron-building",
        "title": "Flatiron Building",
        "vibes": [
          "classics"
        ],
        "kind": "Landmark",
        "area": "New York",
        "hours": "Exterior viewing only, open 24 hours",
        "tags": [
          "Architecture",
          "Photogenic"
        ],
        "description": "Completed in 1902, the triangular Flatiron Building was one of the tallest buildings in the world at the time and remains one of New York's most distinctive silhouettes, formed by the sharp intersection of Fifth Avenue and Broadway.",
        "lat": 40.7411,
        "lng": -73.9897,
        "nearby": [
          {
            "title": "Eataly NYC Flatiron",
            "kind": "Food Hall",
            "mins": 1,
            "lat": 40.742,
            "lng": -73.9903
          },
          {
            "title": "The NoMad Bar",
            "kind": "Cocktail Bar",
            "mins": 4,
            "lat": 40.744,
            "lng": -73.9895
          },
          {
            "title": "Madison Square Park",
            "kind": "Park",
            "mins": 3,
            "lat": 40.7424,
            "lng": -73.9877
          },
          {
            "title": "Shake Shack (Madison Square Park)",
            "kind": "Fast Casual",
            "mins": 2,
            "lat": 40.7415,
            "lng": -73.9883
          },
          {
            "title": "Eleven Madison Park",
            "kind": "Fine Dining",
            "mins": 3,
            "lat": 40.742,
            "lng": -73.9871
          },
          {
            "title": "ABC Carpet & Home",
            "kind": "Home Goods Store",
            "mins": 5,
            "lat": 40.7376,
            "lng": -73.9899
          },
          {
            "title": "Rizzoli Bookstore",
            "kind": "Bookstore",
            "mins": 1,
            "lat": 40.7418,
            "lng": -73.9895
          },
          {
            "title": "The Strand Book Store",
            "kind": "Independent Bookstore",
            "mins": 11,
            "lat": 40.7332,
            "lng": -73.991
          },
          {
            "title": "Union Square Greenmarket",
            "kind": "Farmers Market",
            "mins": 6,
            "lat": 40.7368,
            "lng": -73.9903
          }
        ]
      },
      {
        "id": "st-patrick-s-cathedral",
        "title": "St. Patrick's Cathedral",
        "vibes": [
          "classics"
        ],
        "kind": "Landmark",
        "area": "New York",
        "hours": "Daily 6:30 AM - 8:45 PM",
        "tags": [
          "Neo-Gothic",
          "Historic"
        ],
        "description": "Directly across from Rockefeller Center, St. Patrick's Cathedral is the largest Neo-Gothic Catholic cathedral in North America, completed in 1878 after a construction process that spanned the Civil War.",
        "lat": 40.7585,
        "lng": -73.9759,
        "nearby": [
          {
            "title": "Radio City Music Hall",
            "kind": "Performance Venue",
            "mins": 5,
            "lat": 40.76,
            "lng": -73.98
          },
          {
            "title": "Rockefeller Plaza Ice Rink & Channel Gardens",
            "kind": "Landmark Plaza",
            "mins": 3,
            "lat": 40.7587,
            "lng": -73.9787
          },
          {
            "title": "Museum of Modern Art (MoMA)",
            "kind": "Art Museum",
            "mins": 4,
            "lat": 40.7614,
            "lng": -73.9776
          },
          {
            "title": "Saks Fifth Avenue",
            "kind": "Department Store",
            "mins": 1,
            "lat": 40.7592,
            "lng": -73.9749
          },
          {
            "title": "Tiffany & Co. Fifth Avenue Flagship",
            "kind": "Jewelry Store",
            "mins": 8,
            "lat": 40.7638,
            "lng": -73.9733
          },
          {
            "title": "Blue Bottle Coffee (Rockefeller Concourse)",
            "kind": "Coffee Shop",
            "mins": 3,
            "lat": 40.7589,
            "lng": -73.9787
          },
          {
            "title": "NBC Studio Tour",
            "kind": "Guided Tour",
            "mins": 3,
            "lat": 40.759,
            "lng": -73.9787
          }
        ]
      },
      {
        "id": "coney-island",
        "title": "Coney Island",
        "vibes": [
          "classics"
        ],
        "kind": "Amusement Park & Beach",
        "area": "Coney Island",
        "hours": "Boardwalk open 24 hours; rides seasonal, typically Apr-Oct",
        "tags": [
          "Boardwalk",
          "Nostalgic"
        ],
        "description": "Jutting into the Lower Bay at Brooklyn's southern edge, Coney Island has drawn crowds to its boardwalk, beach, and amusement rides since the late 1800s.",
        "lat": 40.5755,
        "lng": -73.9707,
        "nearby": [
          {
            "title": "Nathan's Famous",
            "kind": "Hot Dog Stand",
            "mins": 11,
            "lat": 40.5747,
            "lng": -73.9814
          },
          {
            "title": "Deno's Wonder Wheel",
            "kind": "Amusement Ride",
            "mins": 10,
            "lat": 40.5745,
            "lng": -73.9799
          },
          {
            "title": "New York Aquarium",
            "kind": "Aquarium",
            "mins": 6,
            "lat": 40.5749,
            "lng": -73.9761
          },
          {
            "title": "Coney Island Museum",
            "kind": "Museum",
            "mins": 11,
            "lat": 40.575,
            "lng": -73.9807
          },
          {
            "title": "Totonno's Pizzeria Napolitano",
            "kind": "Pizzeria",
            "mins": 13,
            "lat": 40.5773,
            "lng": -73.9827
          },
          {
            "title": "Coney Island Boardwalk",
            "kind": "Boardwalk",
            "mins": 7,
            "lat": 40.5735,
            "lng": -73.9772
          },
          {
            "title": "Williams Candy",
            "kind": "Candy Shop",
            "mins": 11,
            "lat": 40.5747,
            "lng": -73.9812
          },
          {
            "title": "Brighton Beach",
            "kind": "Neighborhood & Beach",
            "mins": 11,
            "lat": 40.5776,
            "lng": -73.9605
          },
          {
            "title": "Ruby's Bar & Grill",
            "kind": "Boardwalk Bar",
            "mins": 9,
            "lat": 40.5738,
            "lng": -73.9793
          }
        ]
      },
      {
        "id": "blue-bottle-coffee-chelsea-market",
        "title": "Blue Bottle Coffee (Chelsea Market)",
        "vibes": [
          "matcha"
        ],
        "kind": "Specialty Coffee",
        "area": "New York",
        "hours": "Daily 7:00 AM - 7:00 PM",
        "tags": [
          "Third Wave Roaster",
          "Coworking Friendly"
        ],
        "description": "The Oakland-born roaster's Chelsea Market outpost remains one of its most reliable New York locations, pouring meticulous pourovers and espresso inside the market's industrial-chic food hall.",
        "lat": 40.7424,
        "lng": -74.0061,
        "nearby": [
          {
            "title": "The High Line",
            "kind": "Elevated Park",
            "mins": 8,
            "lat": 40.748,
            "lng": -74.0048
          },
          {
            "title": "Printed Matter",
            "kind": "Art Book Store",
            "mins": 12,
            "lat": 40.7511,
            "lng": -74.0037
          },
          {
            "title": "Gagosian Gallery (Chelsea)",
            "kind": "Art Gallery",
            "mins": 7,
            "lat": 40.7477,
            "lng": -74.0057
          }
        ]
      },
      {
        "id": "balthazar-bakery",
        "title": "Balthazar Bakery",
        "vibes": [
          "matcha"
        ],
        "kind": "French Bakery & Brasserie",
        "area": "New York",
        "hours": "Daily 7:30 AM - 11:00 PM",
        "tags": [
          "Parisian Brasserie",
          "Since 1997"
        ],
        "description": "A SoHo institution since 1997, Balthazar recreates a bustling Parisian brasserie down to the zinc bar, tiled floors, and towering bread baskets delivered table-side.",
        "lat": 40.7233,
        "lng": -73.9977,
        "nearby": [
          {
            "title": "Prince Street Pizza",
            "kind": "Pizzeria",
            "mins": 3,
            "lat": 40.7233,
            "lng": -73.9948
          },
          {
            "title": "McNally Jackson (Prince St)",
            "kind": "Independent Bookstore",
            "mins": 2,
            "lat": 40.7233,
            "lng": -73.9955
          },
          {
            "title": "Elizabeth Street Garden",
            "kind": "Community Garden",
            "mins": 2,
            "lat": 40.7226,
            "lng": -73.9958
          }
        ]
      },
      {
        "id": "russ-daughters-cafe",
        "title": "Russ & Daughters Cafe",
        "vibes": [
          "matcha"
        ],
        "kind": "Appetizing & Brunch",
        "area": "New York",
        "hours": "Daily 9:00 AM - 10:00 PM",
        "tags": [
          "Jewish Deli",
          "Since 1914"
        ],
        "description": "A sit-down extension of the century-old Russ & Daughters appetizing shop, serving the same smoked salmon, bagels, and caviar service in a proper restaurant setting with table service and cocktails.",
        "lat": 40.7186,
        "lng": -73.9891,
        "nearby": [
          {
            "title": "Katz's Delicatessen",
            "kind": "Deli",
            "mins": 5,
            "lat": 40.7223,
            "lng": -73.9874
          },
          {
            "title": "Tenement Museum",
            "kind": "Museum",
            "mins": 1,
            "lat": 40.7186,
            "lng": -73.9899
          },
          {
            "title": "Economy Candy",
            "kind": "Candy Shop",
            "mins": 2,
            "lat": 40.7203,
            "lng": -73.9885
          }
        ]
      },
      {
        "id": "clinton-st-baking-company",
        "title": "Clinton St. Baking Company",
        "vibes": [
          "matcha"
        ],
        "kind": "Brunch Restaurant",
        "area": "New York",
        "hours": "Mon-Fri 8:00 AM - 4:00 PM & 6:00 PM-11:00 PM, Sat-Sun 9:00 AM-4:00 PM",
        "tags": [
          "Famous Pancakes",
          "Weekend Lines"
        ],
        "description": "Famous for blueberry pancakes drenched in warm maple butter, Clinton St. Baking Company has anchored this Lower East Side corner since 2001 and remains one of the most reliably long weekend brunch lines in the city.",
        "lat": 40.7191,
        "lng": -73.9868,
        "nearby": [
          {
            "title": "Katz's Delicatessen",
            "kind": "Deli",
            "mins": 4,
            "lat": 40.7223,
            "lng": -73.9874
          },
          {
            "title": "Tenement Museum",
            "kind": "Museum",
            "mins": 3,
            "lat": 40.7186,
            "lng": -73.9899
          },
          {
            "title": "Economy Candy",
            "kind": "Candy Shop",
            "mins": 2,
            "lat": 40.7203,
            "lng": -73.9885
          }
        ]
      },
      {
        "id": "sarabeth-s-upper-west-side",
        "title": "Sarabeth's (Upper West Side)",
        "vibes": [
          "matcha"
        ],
        "kind": "Brunch Restaurant",
        "area": "New York",
        "hours": "Daily 8:00 AM - 4:00 PM",
        "tags": [
          "Classic NYC Brunch",
          "Since 1981"
        ],
        "description": "A defining name in New York brunch since 1981, Sarabeth's built its reputation on homemade preserves, baked French toast, and a genuinely warm, unhurried dining room that predates the city's current brunch-industrial complex.",
        "lat": 40.7852,
        "lng": -73.9765,
        "nearby": [
          {
            "title": "Central Park",
            "kind": "Park",
            "mins": 12,
            "lat": 40.7829,
            "lng": -73.9654
          },
          {
            "title": "Zabar's",
            "kind": "Specialty Food Market",
            "mins": 3,
            "lat": 40.7874,
            "lng": -73.9754
          },
          {
            "title": "Levain Bakery",
            "kind": "Bakery",
            "mins": 9,
            "lat": 40.7796,
            "lng": -73.9799
          }
        ]
      },
      {
        "id": "jack-s-wife-freda-soho-nolita",
        "title": "Jack's Wife Freda (Soho/Nolita)",
        "vibes": [
          "matcha"
        ],
        "kind": "Brunch Restaurant",
        "area": "New York",
        "hours": "Daily 9:00 AM - 11:00 PM",
        "tags": [
          "Mediterranean-Inspired",
          "Trendy"
        ],
        "description": "A perennially busy Mediterranean-inspired brunch spot straddling SoHo and Nolita, known for its green shakshuka and Bikini sandwich alongside a small, tightly packed dining room that fills quickly on weekends.",
        "lat": 40.722,
        "lng": -73.9971,
        "nearby": [
          {
            "title": "Prince Street Pizza",
            "kind": "Pizzeria",
            "mins": 3,
            "lat": 40.7233,
            "lng": -73.9948
          },
          {
            "title": "McNally Jackson (Prince St)",
            "kind": "Independent Bookstore",
            "mins": 2,
            "lat": 40.7233,
            "lng": -73.9955
          },
          {
            "title": "Elizabeth Street Garden",
            "kind": "Community Garden",
            "mins": 2,
            "lat": 40.7226,
            "lng": -73.9958
          }
        ]
      },
      {
        "id": "think-coffee",
        "title": "Think Coffee",
        "vibes": [
          "matcha"
        ],
        "kind": "Coffee Shop",
        "area": "New York",
        "hours": "Daily 6:30 AM - 11:00 PM",
        "tags": [
          "Coworking Friendly",
          "NYU Area"
        ],
        "description": "A long-running Greenwich Village coffee shop that's become a default laptop headquarters for NYU students and remote workers alike, with communal tables, reliable wifi, and a straightforward menu of well-made espresso drinks.",
        "lat": 40.729,
        "lng": -73.9955,
        "nearby": [
          {
            "title": "Washington Square Park",
            "kind": "Park",
            "mins": 3,
            "lat": 40.7308,
            "lng": -73.9973
          },
          {
            "title": "The Strand Book Store",
            "kind": "Independent Bookstore",
            "mins": 8,
            "lat": 40.7332,
            "lng": -73.991
          },
          {
            "title": "Blue Note Jazz Club",
            "kind": "Jazz Club",
            "mins": 6,
            "lat": 40.7308,
            "lng": -74.0003
          }
        ]
      },
      {
        "id": "culture-espresso",
        "title": "Culture Espresso",
        "vibes": [
          "matcha"
        ],
        "kind": "Coffee Shop",
        "area": "New York",
        "hours": "Mon-Fri 7:00 AM - 6:00 PM, Sat-Sun 8:00 AM - 5:00 PM",
        "tags": [
          "Excellent Espresso",
          "Garment District"
        ],
        "description": "A small, focused espresso bar in the Garment District known for consistently excellent shots and a genuinely good chocolate chip cookie, drawing a loyal following of Midtown office workers escaping chain coffee options nearby.",
        "lat": 40.7522,
        "lng": -73.9855,
        "nearby": [
          {
            "title": "Macy's Herald Square",
            "kind": "Department Store",
            "mins": 5,
            "lat": 40.7505,
            "lng": -73.9895
          },
          {
            "title": "The Museum at FIT",
            "kind": "Fashion Museum",
            "mins": 13,
            "lat": 40.7474,
            "lng": -73.9962
          }
        ]
      },
      {
        "id": "devocion-williamsburg",
        "title": "Devoción (Williamsburg)",
        "vibes": [
          "matcha"
        ],
        "kind": "Coffee Roaster",
        "area": "Brooklyn",
        "hours": "Daily 7:00 AM - 7:00 PM",
        "tags": [
          "Colombian Roaster",
          "Greenhouse Interior"
        ],
        "description": "A greenhouse-style Williamsburg roaster filled with hanging plants and skylights, roasting beans flown in weekly from the founder's own farm in Colombia.",
        "lat": 40.7157,
        "lng": -73.9622,
        "nearby": [
          {
            "title": "Domino Park",
            "kind": "Waterfront Park",
            "mins": 4,
            "lat": 40.7178,
            "lng": -73.9647
          },
          {
            "title": "Bedford Cheese Shop",
            "kind": "Specialty Food Shop",
            "mins": 4,
            "lat": 40.7156,
            "lng": -73.9585
          },
          {
            "title": "Wythe Hotel Rooftop (Ides Bar)",
            "kind": "Rooftop Bar",
            "mins": 10,
            "lat": 40.7217,
            "lng": -73.9573
          }
        ]
      },
      {
        "id": "cafe-grumpy-greenpoint-flagship",
        "title": "Café Grumpy (Greenpoint Flagship)",
        "vibes": [
          "matcha"
        ],
        "kind": "Coffee Roaster",
        "area": "Brooklyn",
        "hours": "Daily 7:00 AM - 7:00 PM",
        "tags": [
          "No Laptops Policy",
          "Original Location"
        ],
        "description": "The original Café Grumpy location that inspired the fictional cafe of the same name on HGTV's Girls, still roasting its own beans and serving a neighborhood crowd rather than a tourist one in quiet Greenpoint.",
        "lat": 40.7278,
        "lng": -73.9505,
        "nearby": [
          {
            "title": "WORD Bookstore",
            "kind": "Independent Bookstore",
            "mins": 8,
            "lat": 40.7259,
            "lng": -73.9575
          },
          {
            "title": "Transmitter Park",
            "kind": "Waterfront Park",
            "mins": 9,
            "lat": 40.7307,
            "lng": -73.9585
          }
        ]
      },
      {
        "id": "partners-coffee-williamsburg",
        "title": "Partners Coffee (Williamsburg)",
        "vibes": [
          "matcha"
        ],
        "kind": "Coffee Roaster",
        "area": "Brooklyn",
        "hours": "Daily 7:00 AM - 7:00 PM",
        "tags": [
          "Spacious",
          "Coworking Friendly"
        ],
        "description": "A spacious, light-filled Williamsburg roaster with enough seating and outlets to genuinely function as a workday office away from home, a rarer combination in a neighborhood full of small-footprint coffee bars.",
        "lat": 40.718,
        "lng": -73.9587,
        "nearby": [
          {
            "title": "Domino Park",
            "kind": "Waterfront Park",
            "mins": 6,
            "lat": 40.7178,
            "lng": -73.9647
          },
          {
            "title": "Bedford Cheese Shop",
            "kind": "Specialty Food Shop",
            "mins": 3,
            "lat": 40.7156,
            "lng": -73.9585
          },
          {
            "title": "Wythe Hotel Rooftop (Ides Bar)",
            "kind": "Rooftop Bar",
            "mins": 5,
            "lat": 40.7217,
            "lng": -73.9573
          }
        ]
      },
      {
        "id": "sey-coffee",
        "title": "Sey Coffee",
        "vibes": [
          "matcha"
        ],
        "kind": "Coffee Roaster",
        "area": "Brooklyn",
        "hours": "Mon-Fri 7:00 AM - 5:00 PM, Sat-Sun 8:00 AM - 5:00 PM",
        "tags": [
          "Single Origin",
          "Skylit Space"
        ],
        "description": "A bright, airy roaster on the Bushwick-Williamsburg border built around a commitment to single-origin coffee over blends, sourcing rotating guest beans from respected international roasters alongside its own.",
        "lat": 40.7061,
        "lng": -73.9331,
        "nearby": [
          {
            "title": "The Bushwick Collective",
            "kind": "Street Art",
            "mins": 11,
            "lat": 40.7037,
            "lng": -73.9231
          },
          {
            "title": "Roberta's Pizza",
            "kind": "Pizzeria",
            "mins": 1,
            "lat": 40.7051,
            "lng": -73.9335
          }
        ]
      },
      {
        "id": "sweetleaf-coffee-roasters-lic",
        "title": "Sweetleaf Coffee Roasters (LIC)",
        "vibes": [
          "matcha"
        ],
        "kind": "Coffee Roaster",
        "area": "Long Island City",
        "hours": "Mon-Fri 7:00 AM - 7:00 PM, Sat-Sun 8:00 AM - 7:00 PM",
        "tags": [
          "Bar-Like Atmosphere",
          "Long Island City"
        ],
        "description": "A serious, precisely dialed-in coffee bar in Long Island City, built around the idea of coffee prepared with bar-like technique and ceremony rather than fast-casual convenience.",
        "lat": 40.7447,
        "lng": -73.9481,
        "nearby": [
          {
            "title": "Gantry Plaza State Park",
            "kind": "Waterfront Park",
            "mins": 13,
            "lat": 40.7454,
            "lng": -73.96
          },
          {
            "title": "MoMA PS1",
            "kind": "Contemporary Art Museum",
            "mins": 3,
            "lat": 40.7469,
            "lng": -73.9481
          }
        ]
      },
      {
        "id": "third-rail-coffee",
        "title": "Third Rail Coffee",
        "vibes": [
          "matcha"
        ],
        "kind": "Coffee Shop",
        "area": "New York",
        "hours": "Daily 7:00 AM - 8:00 PM",
        "tags": [
          "Neighborhood Favorite",
          "Greenwich Village"
        ],
        "description": "A small, unassuming Greenwich Village coffee shop that's built a devoted following through consistently well-pulled espresso rather than any particular design statement or gimmick.",
        "lat": 40.7285,
        "lng": -74.0,
        "nearby": [
          {
            "title": "Washington Square Park",
            "kind": "Park",
            "mins": 4,
            "lat": 40.7308,
            "lng": -73.9973
          },
          {
            "title": "The Strand Book Store",
            "kind": "Independent Bookstore",
            "mins": 12,
            "lat": 40.7332,
            "lng": -73.991
          },
          {
            "title": "Blue Note Jazz Club",
            "kind": "Jazz Club",
            "mins": 3,
            "lat": 40.7308,
            "lng": -74.0003
          }
        ]
      },
      {
        "id": "alice-s-tea-cup-upper-west-side",
        "title": "Alice's Tea Cup (Upper West Side)",
        "vibes": [
          "matcha"
        ],
        "kind": "Tea House & Brunch",
        "area": "New York",
        "hours": "Daily 8:00 AM - 7:00 PM",
        "tags": [
          "Whimsical",
          "Family Favorite"
        ],
        "description": "A whimsical, fairy-tale-themed tea house serving scones, finger sandwiches, and an extensive loose-leaf tea list alongside a full brunch menu, drawing a loyal following of families and tea enthusiasts on the Upper West Side.",
        "lat": 40.7791,
        "lng": -73.9776,
        "nearby": [
          {
            "title": "Central Park",
            "kind": "Park",
            "mins": 14,
            "lat": 40.7829,
            "lng": -73.9654
          },
          {
            "title": "Zabar's",
            "kind": "Specialty Food Market",
            "mins": 12,
            "lat": 40.7874,
            "lng": -73.9754
          },
          {
            "title": "Levain Bakery",
            "kind": "Bakery",
            "mins": 3,
            "lat": 40.7796,
            "lng": -73.9799
          }
        ]
      },
      {
        "id": "12-matcha",
        "title": "12 Matcha",
        "vibes": [
          "matcha"
        ],
        "kind": "Matcha Cafe",
        "area": "New York",
        "hours": "Daily 8:30 AM - 5:00 PM",
        "tags": [
          "Minimalist Design",
          "NoHo"
        ],
        "description": "Designed by Paris-based studio Ciguë, 12 Matcha's Bond Street space is a masterclass in restraint: polished concrete, hand-applied green lacquer, and brushed stainless steel arranged around a single central counter.",
        "lat": 40.7259,
        "lng": -73.9934,
        "nearby": [
          {
            "title": "Housing Works Bookstore Cafe",
            "kind": "Used Bookstore & Cafe",
            "mins": 5,
            "lat": 40.7241,
            "lng": -73.9974
          },
          {
            "title": "DeVocion Coffee (Great Jones St)",
            "kind": "Coffee Roaster",
            "mins": 2,
            "lat": 40.7275,
            "lng": -73.9942
          },
          {
            "title": "Merchant's House Museum",
            "kind": "Historic House Museum",
            "mins": 3,
            "lat": 40.7274,
            "lng": -73.9917
          },
          {
            "title": "The Public Theater",
            "kind": "Performing Arts Venue",
            "mins": 4,
            "lat": 40.7286,
            "lng": -73.9917
          },
          {
            "title": "Astor Place Cube",
            "kind": "Public Art",
            "mins": 6,
            "lat": 40.7297,
            "lng": -73.9909
          }
        ]
      },
      {
        "id": "cha-cha-matcha",
        "title": "Cha Cha Matcha",
        "vibes": [
          "matcha"
        ],
        "kind": "Matcha Cafe",
        "area": "New York",
        "hours": "Daily 8:00 AM - 7:00 PM",
        "tags": [
          "Draft Matcha",
          "Iconic"
        ],
        "description": "NYC's most iconic matcha brand built its name on Draft Matcha, dispensed from a tap like cold brew for a consistently smooth, lightly frothy pour.",
        "lat": 40.742,
        "lng": -73.991,
        "nearby": [
          {
            "title": "Madison Square Park",
            "kind": "Park",
            "mins": 4,
            "lat": 40.7424,
            "lng": -73.9877
          },
          {
            "title": "Rizzoli Bookstore",
            "kind": "Bookstore",
            "mins": 2,
            "lat": 40.7418,
            "lng": -73.9895
          },
          {
            "title": "Eataly NYC Flatiron",
            "kind": "Food Hall",
            "mins": 1,
            "lat": 40.742,
            "lng": -73.9903
          },
          {
            "title": "ABC Carpet & Home",
            "kind": "Home Goods Store",
            "mins": 6,
            "lat": 40.7376,
            "lng": -73.9899
          }
        ]
      },
      {
        "id": "matchaful",
        "title": "Matchaful",
        "vibes": [
          "matcha"
        ],
        "kind": "Matcha Cafe",
        "area": "New York",
        "hours": "Daily 8:00 AM - 6:00 PM",
        "tags": [
          "Wabi-Sabi Interiors",
          "Farm-to-Whisk"
        ],
        "description": "Matchaful takes direct inspiration from wabi-sabi design principles, building a calm, understated space meant to help visitors escape the city's intensity for a few minutes.",
        "lat": 40.7273,
        "lng": -74.0026,
        "nearby": [
          {
            "title": "MUJI SoHo",
            "kind": "Design Store",
            "mins": 8,
            "lat": 40.7217,
            "lng": -73.9998
          },
          {
            "title": "McNally Jackson (Prince St)",
            "kind": "Independent Bookstore",
            "mins": 9,
            "lat": 40.7233,
            "lng": -73.9955
          },
          {
            "title": "Nalata Nalata",
            "kind": "Design Store",
            "mins": 12,
            "lat": 40.7189,
            "lng": -74.0011
          },
          {
            "title": "The Drawing Center",
            "kind": "Art Gallery",
            "mins": 6,
            "lat": 40.7233,
            "lng": -74.0023
          },
          {
            "title": "Sant Ambroeus SoHo",
            "kind": "Italian Cafe",
            "mins": 9,
            "lat": 40.7335,
            "lng": -74.0033
          }
        ]
      },
      {
        "id": "setsugekka",
        "title": "Setsugekka",
        "vibes": [
          "matcha"
        ],
        "kind": "Tea House",
        "area": "East Village",
        "hours": "Tue-Fri 12 PM-5 PM, Sat-Sun 11 AM-5 PM, Closed Mon",
        "tags": [
          "Ceremonial",
          "Stone-Milled"
        ],
        "description": "The most authentically ceremonial matcha experience in New York, run by tea master Souheki Mori, who has practiced Japanese tea ceremony for more than 30 years.",
        "lat": 40.7265,
        "lng": -73.9815,
        "nearby": [
          {
            "title": "Tompkins Square Park",
            "kind": "Park",
            "mins": 1,
            "lat": 40.7265,
            "lng": -73.9815
          },
          {
            "title": "Veselka",
            "kind": "Ukrainian Diner",
            "mins": 7,
            "lat": 40.7297,
            "lng": -73.9868
          },
          {
            "title": "Mast Books",
            "kind": "Used Bookstore",
            "mins": 2,
            "lat": 40.7255,
            "lng": -73.9829
          },
          {
            "title": "Van Leeuwen Ice Cream (East Village)",
            "kind": "Ice Cream Shop",
            "mins": 7,
            "lat": 40.7266,
            "lng": -73.9885
          },
          {
            "title": "Cooper Union Foundation Building",
            "kind": "Landmark Building",
            "mins": 10,
            "lat": 40.7295,
            "lng": -73.9905
          },
          {
            "title": "6BC Botanical Garden",
            "kind": "Community Garden",
            "mins": 3,
            "lat": 40.7247,
            "lng": -73.9803
          },
          {
            "title": "St. Marks Place",
            "kind": "Historic Street",
            "mins": 5,
            "lat": 40.7282,
            "lng": -73.9857
          },
          {
            "title": "Two Boots Pizza (East Village)",
            "kind": "Pizzeria",
            "mins": 3,
            "lat": 40.7248,
            "lng": -73.9835
          }
        ]
      },
      {
        "id": "kettl-tea",
        "title": "Kettl Tea",
        "vibes": [
          "matcha"
        ],
        "kind": "Tea House",
        "area": "New York",
        "hours": "Daily 10:00 AM - 6:00 PM",
        "tags": [
          "Japanese Import",
          "Serious Matcha"
        ],
        "description": "One of the most serious matcha operators in the city, Kettl imports directly from small Japanese tea farms and treats matcha with the same rigor a specialty coffee shop treats single-origin beans.",
        "lat": 40.7188,
        "lng": -73.9895,
        "nearby": [
          {
            "title": "Economy Candy",
            "kind": "Candy Shop",
            "mins": 2,
            "lat": 40.7203,
            "lng": -73.9885
          },
          {
            "title": "Tenement Museum",
            "kind": "Museum",
            "mins": 1,
            "lat": 40.7186,
            "lng": -73.9899
          },
          {
            "title": "Essex Market",
            "kind": "Food Market",
            "mins": 2,
            "lat": 40.7182,
            "lng": -73.9878
          },
          {
            "title": "10 Ft Single by Stella Dallas",
            "kind": "Vintage Store",
            "mins": 8,
            "lat": 40.7231,
            "lng": -73.9945
          }
        ]
      },
      {
        "id": "isshiki-matcha",
        "title": "Isshiki Matcha",
        "vibes": [
          "matcha"
        ],
        "kind": "Matcha Cafe",
        "area": "New York",
        "hours": "Daily 8:00 AM - 3:00 PM",
        "tags": [
          "Serene Oasis",
          "Uji Sourced"
        ],
        "description": "Isshiki, meaning \"one color\" in Japanese, is built entirely around the idea of matcha as purity and simplicity distilled into a single vibrant green hue.",
        "lat": 40.7291,
        "lng": -73.9877,
        "nearby": [
          {
            "title": "Tompkins Square Park",
            "kind": "Park",
            "mins": 7,
            "lat": 40.7265,
            "lng": -73.9815
          },
          {
            "title": "Veselka",
            "kind": "Ukrainian Diner",
            "mins": 1,
            "lat": 40.7297,
            "lng": -73.9868
          },
          {
            "title": "Mast Books",
            "kind": "Used Bookstore",
            "mins": 7,
            "lat": 40.7255,
            "lng": -73.9829
          },
          {
            "title": "Van Leeuwen Ice Cream (East Village)",
            "kind": "Ice Cream Shop",
            "mins": 4,
            "lat": 40.7266,
            "lng": -73.9885
          },
          {
            "title": "Cooper Union Foundation Building",
            "kind": "Landmark Building",
            "mins": 3,
            "lat": 40.7295,
            "lng": -73.9905
          },
          {
            "title": "6BC Botanical Garden",
            "kind": "Community Garden",
            "mins": 10,
            "lat": 40.7247,
            "lng": -73.9803
          },
          {
            "title": "St. Marks Place",
            "kind": "Historic Street",
            "mins": 2,
            "lat": 40.7282,
            "lng": -73.9857
          },
          {
            "title": "Two Boots Pizza (East Village)",
            "kind": "Pizzeria",
            "mins": 7,
            "lat": 40.7248,
            "lng": -73.9835
          }
        ]
      },
      {
        "id": "sorate",
        "title": "Sorate",
        "vibes": [
          "matcha"
        ],
        "kind": "Matcha Cafe",
        "area": "Sullivan St",
        "hours": "Daily 9:00 AM - 5:00 PM",
        "tags": [
          "Tiny & Intimate",
          "Tokyo Tea House Feel"
        ],
        "description": "With only a handful of counter seats, Sorate feels more like a Tokyo side-street tea house than a commercial Soho cafe.",
        "lat": 40.7261,
        "lng": -74.0031,
        "nearby": [
          {
            "title": "MUJI SoHo",
            "kind": "Design Store",
            "mins": 7,
            "lat": 40.7217,
            "lng": -73.9998
          },
          {
            "title": "McNally Jackson (Prince St)",
            "kind": "Independent Bookstore",
            "mins": 9,
            "lat": 40.7233,
            "lng": -73.9955
          },
          {
            "title": "Nalata Nalata",
            "kind": "Design Store",
            "mins": 10,
            "lat": 40.7189,
            "lng": -74.0011
          },
          {
            "title": "The Drawing Center",
            "kind": "Art Gallery",
            "mins": 4,
            "lat": 40.7233,
            "lng": -74.0023
          },
          {
            "title": "Sant Ambroeus SoHo",
            "kind": "Italian Cafe",
            "mins": 10,
            "lat": 40.7335,
            "lng": -74.0033
          }
        ]
      },
      {
        "id": "aoko-matcha",
        "title": "Aoko Matcha",
        "vibes": [
          "matcha"
        ],
        "kind": "Matcha Gelato Shop",
        "area": "New York",
        "hours": "Daily 11:00 AM - 11:00 PM",
        "tags": [
          "Five-Shade Tasting",
          "West Village"
        ],
        "description": "Aokō reimagines matcha as gelato and soft serve across a five-level tasting progression, from a gently sweet Level 1 to a bold, ceremonial-grade Level 5, letting guests sample before committing like a wine flight.",
        "lat": 40.7325,
        "lng": -74.0034,
        "nearby": [
          {
            "title": "Washington Square Park",
            "kind": "Park",
            "mins": 7,
            "lat": 40.7308,
            "lng": -73.9973
          },
          {
            "title": "Three Lives & Company",
            "kind": "Independent Bookstore",
            "mins": 4,
            "lat": 40.7343,
            "lng": -74.0007
          },
          {
            "title": "Rocco's Italian Pastry Shop",
            "kind": "Bakery",
            "mins": 1,
            "lat": 40.7317,
            "lng": -74.0027
          },
          {
            "title": "IFC Center",
            "kind": "Independent Cinema",
            "mins": 3,
            "lat": 40.7314,
            "lng": -74.0005
          }
        ]
      },
      {
        "id": "cafe-kitsune",
        "title": "Cafe Kitsune",
        "vibes": [
          "matcha"
        ],
        "kind": "Matcha Cafe",
        "area": "New York",
        "hours": "Daily 8:00 AM - 7:00 PM",
        "tags": [
          "Design-Forward",
          "Nolita"
        ],
        "description": "The New York outpost of the French-Japanese Maison Kitsune brand brings a minimalist, design-forward take on Japanese cafe culture to a quiet stretch of Nolita.",
        "lat": 40.7231,
        "lng": -73.9945,
        "nearby": [
          {
            "title": "Elizabeth Street Garden",
            "kind": "Community Garden",
            "mins": 2,
            "lat": 40.7226,
            "lng": -73.9958
          },
          {
            "title": "Cafe Habana",
            "kind": "Cuban-Mexican Restaurant",
            "mins": 1,
            "lat": 40.7229,
            "lng": -73.9955
          },
          {
            "title": "The Butcher's Daughter",
            "kind": "Vegetarian Cafe",
            "mins": 2,
            "lat": 40.7217,
            "lng": -73.9958
          },
          {
            "title": "Emilio's Ballato",
            "kind": "Italian Restaurant",
            "mins": 1,
            "lat": 40.7233,
            "lng": -73.9956
          }
        ]
      },
      {
        "id": "kijitora",
        "title": "KIJITORA",
        "vibes": [
          "matcha"
        ],
        "kind": "Matcha Cafe",
        "area": "Brooklyn",
        "hours": "Daily 8:00 AM - 6:00 PM",
        "tags": [
          "Cat-Themed",
          "Slow Living"
        ],
        "description": "Named after the Japanese word for tabby cat, KIJITORA brings a warm, unhurried energy to Williamsburg's matcha scene, built around a philosophy of slowing down and savoring every sip.",
        "lat": 40.7178,
        "lng": -73.9576,
        "nearby": [
          {
            "title": "Domino Park",
            "kind": "Waterfront Park",
            "mins": 7,
            "lat": 40.7178,
            "lng": -73.9647
          },
          {
            "title": "Spoonbill & Sugartown Booksellers",
            "kind": "Independent Bookstore",
            "mins": 2,
            "lat": 40.7168,
            "lng": -73.9586
          },
          {
            "title": "Devoción (Williamsburg flagship)",
            "kind": "Coffee Roaster",
            "mins": 6,
            "lat": 40.7157,
            "lng": -73.9622
          },
          {
            "title": "Wythe Hotel Rooftop (Ides Bar)",
            "kind": "Rooftop Bar",
            "mins": 5,
            "lat": 40.7217,
            "lng": -73.9573
          }
        ]
      },
      {
        "id": "rhythm-zero",
        "title": "Rhythm Zero",
        "vibes": [
          "matcha"
        ],
        "kind": "Coffee & Matcha Shop",
        "area": "New York",
        "hours": "Daily 7:30 AM - 6:00 PM",
        "tags": [
          "Airy Minimalist Space",
          "Seasonal Specials"
        ],
        "description": "A trendy West Village shop making some of the more inventive matcha lattes in the city, with rotating seasonal specials like blackberry pie matcha and sparkling yuzu matcha.",
        "lat": 40.7345,
        "lng": -74.0033,
        "nearby": [
          {
            "title": "Washington Square Park",
            "kind": "Park",
            "mins": 8,
            "lat": 40.7308,
            "lng": -73.9973
          },
          {
            "title": "Three Lives & Company",
            "kind": "Independent Bookstore",
            "mins": 3,
            "lat": 40.7343,
            "lng": -74.0007
          },
          {
            "title": "Rocco's Italian Pastry Shop",
            "kind": "Bakery",
            "mins": 4,
            "lat": 40.7317,
            "lng": -74.0027
          },
          {
            "title": "IFC Center",
            "kind": "Independent Cinema",
            "mins": 5,
            "lat": 40.7314,
            "lng": -74.0005
          }
        ]
      },
      {
        "id": "matcha-cafe-maiko",
        "title": "Matcha Cafe Maiko",
        "vibes": [
          "matcha"
        ],
        "kind": "Matcha Cafe",
        "area": "New York",
        "hours": "Daily 11:00 AM - 8:00 PM",
        "tags": [
          "Japanese Dessert",
          "Soft Serve"
        ],
        "description": "Born in Uji, Japan and brought to the East Village, Maiko builds its menu around the Japanese dessert cafe format rather than the Western latte bar.",
        "lat": 40.7305,
        "lng": -73.9877,
        "nearby": [
          {
            "title": "Tompkins Square Park",
            "kind": "Park",
            "mins": 9,
            "lat": 40.7265,
            "lng": -73.9815
          },
          {
            "title": "Veselka",
            "kind": "Ukrainian Diner",
            "mins": 1,
            "lat": 40.7297,
            "lng": -73.9868
          },
          {
            "title": "Mast Books",
            "kind": "Used Bookstore",
            "mins": 9,
            "lat": 40.7255,
            "lng": -73.9829
          },
          {
            "title": "Van Leeuwen Ice Cream (East Village)",
            "kind": "Ice Cream Shop",
            "mins": 5,
            "lat": 40.7266,
            "lng": -73.9885
          },
          {
            "title": "Cooper Union Foundation Building",
            "kind": "Landmark Building",
            "mins": 3,
            "lat": 40.7295,
            "lng": -73.9905
          },
          {
            "title": "6BC Botanical Garden",
            "kind": "Community Garden",
            "mins": 11,
            "lat": 40.7247,
            "lng": -73.9803
          },
          {
            "title": "St. Marks Place",
            "kind": "Historic Street",
            "mins": 4,
            "lat": 40.7282,
            "lng": -73.9857
          },
          {
            "title": "Two Boots Pizza (East Village)",
            "kind": "Pizzeria",
            "mins": 9,
            "lat": 40.7248,
            "lng": -73.9835
          }
        ]
      },
      {
        "id": "matcha-house",
        "title": "Matcha House",
        "vibes": [
          "matcha"
        ],
        "kind": "Tea House",
        "area": "New York",
        "hours": "Mon 9 AM-5:30 PM, Tue-Fri 8 AM-5:30 PM, Sat 9 AM-6 PM, Closed Sun",
        "tags": [
          "Uji Sourced",
          "Community Hub"
        ],
        "description": "Built on a philosophy of excellence at every step, from the tea farm to the final pour, Matcha House sources from award-winning Uji farms and studies single-cultivar profiles for tastings that go well beyond a standard latte menu.",
        "lat": 40.7284,
        "lng": -73.9862,
        "nearby": [
          {
            "title": "Tompkins Square Park",
            "kind": "Park",
            "mins": 6,
            "lat": 40.7265,
            "lng": -73.9815
          },
          {
            "title": "Veselka",
            "kind": "Ukrainian Diner",
            "mins": 2,
            "lat": 40.7297,
            "lng": -73.9868
          },
          {
            "title": "Mast Books",
            "kind": "Used Bookstore",
            "mins": 5,
            "lat": 40.7255,
            "lng": -73.9829
          },
          {
            "title": "Van Leeuwen Ice Cream (East Village)",
            "kind": "Ice Cream Shop",
            "mins": 3,
            "lat": 40.7266,
            "lng": -73.9885
          },
          {
            "title": "Cooper Union Foundation Building",
            "kind": "Landmark Building",
            "mins": 5,
            "lat": 40.7295,
            "lng": -73.9905
          },
          {
            "title": "6BC Botanical Garden",
            "kind": "Community Garden",
            "mins": 8,
            "lat": 40.7247,
            "lng": -73.9803
          },
          {
            "title": "St. Marks Place",
            "kind": "Historic Street",
            "mins": 1,
            "lat": 40.7282,
            "lng": -73.9857
          },
          {
            "title": "Two Boots Pizza (East Village)",
            "kind": "Pizzeria",
            "mins": 6,
            "lat": 40.7248,
            "lng": -73.9835
          }
        ]
      },
      {
        "id": "choji",
        "title": "Choji",
        "vibes": [
          "matcha"
        ],
        "kind": "Matcha Cafe",
        "area": "New York",
        "hours": "Daily 10:00 AM - 7:00 PM",
        "tags": [
          "Creative Flavors",
          "Grab and Go"
        ],
        "description": "A tiny East Village storefront known for the most creative matcha flavor pairings in the neighborhood, including matcha fig cream, matcha creme brulee, and banana pudding matcha.",
        "lat": 40.7307,
        "lng": -73.9924,
        "nearby": [
          {
            "title": "Tompkins Square Park",
            "kind": "Park",
            "mins": 13,
            "lat": 40.7265,
            "lng": -73.9815
          },
          {
            "title": "Veselka",
            "kind": "Ukrainian Diner",
            "mins": 6,
            "lat": 40.7297,
            "lng": -73.9868
          },
          {
            "title": "Mast Books",
            "kind": "Used Bookstore",
            "mins": 12,
            "lat": 40.7255,
            "lng": -73.9829
          },
          {
            "title": "Van Leeuwen Ice Cream (East Village)",
            "kind": "Ice Cream Shop",
            "mins": 7,
            "lat": 40.7266,
            "lng": -73.9885
          },
          {
            "title": "Cooper Union Foundation Building",
            "kind": "Landmark Building",
            "mins": 3,
            "lat": 40.7295,
            "lng": -73.9905
          },
          {
            "title": "6BC Botanical Garden",
            "kind": "Community Garden",
            "mins": 15,
            "lat": 40.7247,
            "lng": -73.9803
          },
          {
            "title": "St. Marks Place",
            "kind": "Historic Street",
            "mins": 8,
            "lat": 40.7282,
            "lng": -73.9857
          },
          {
            "title": "Two Boots Pizza (East Village)",
            "kind": "Pizzeria",
            "mins": 12,
            "lat": 40.7248,
            "lng": -73.9835
          }
        ]
      },
      {
        "id": "verse",
        "title": "Verse",
        "vibes": [
          "matcha"
        ],
        "kind": "Matcha Cafe",
        "area": "Queens",
        "hours": "Daily 8:00 AM - 5:00 PM",
        "tags": [
          "Neighborhood Gem",
          "Astoria"
        ],
        "description": "A Japanese cafe serving standout matcha on an unassuming Astoria block, well outside the denser Manhattan matcha circuit.",
        "lat": 40.7746,
        "lng": -73.9209,
        "nearby": [
          {
            "title": "Astoria Park",
            "kind": "Waterfront Park",
            "mins": 7,
            "lat": 40.7794,
            "lng": -73.9226
          },
          {
            "title": "Bohemian Hall & Beer Garden",
            "kind": "Beer Garden",
            "mins": 9,
            "lat": 40.7729,
            "lng": -73.9127
          },
          {
            "title": "Museum of the Moving Image",
            "kind": "Museum",
            "mins": 27,
            "lat": 40.7553,
            "lng": -73.9243
          }
        ]
      },
      {
        "id": "please-don-t-tell-pdt",
        "title": "Please Don't Tell (PDT)",
        "vibes": [
          "nightlife"
        ],
        "kind": "Speakeasy",
        "area": "New York",
        "hours": "Daily 6:00 PM - 2:00 AM",
        "tags": [
          "Hidden Entrance",
          "Craft Cocktails"
        ],
        "description": "One of the defining speakeasies of New York's cocktail revival, PDT is entered through a hidden phone booth inside Crif Dogs, the hot dog shop next door.",
        "lat": 40.7275,
        "lng": -73.9847,
        "nearby": [
          {
            "title": "Tompkins Square Park",
            "kind": "Park",
            "mins": 4,
            "lat": 40.7265,
            "lng": -73.9815
          },
          {
            "title": "Veselka",
            "kind": "Ukrainian Diner",
            "mins": 4,
            "lat": 40.7297,
            "lng": -73.9868
          },
          {
            "title": "St. Marks Place",
            "kind": "Historic Street",
            "mins": 1,
            "lat": 40.7282,
            "lng": -73.9857
          }
        ]
      },
      {
        "id": "village-vanguard",
        "title": "Village Vanguard",
        "vibes": [
          "nightlife"
        ],
        "kind": "Jazz Club",
        "area": "New York",
        "hours": "Daily, sets typically 8:30 PM & 10:30 PM",
        "tags": [
          "Historic",
          "Live Music"
        ],
        "description": "Operating since 1935, the Village Vanguard is the holy grail for jazz purists and one of the most historically significant music venues in the world.",
        "lat": 40.7357,
        "lng": -74.0027,
        "nearby": [
          {
            "title": "Washington Square Park",
            "kind": "Park",
            "mins": 9,
            "lat": 40.7308,
            "lng": -73.9973
          },
          {
            "title": "Blue Note Jazz Club",
            "kind": "Jazz Club",
            "mins": 7,
            "lat": 40.7308,
            "lng": -74.0003
          },
          {
            "title": "Three Lives & Company",
            "kind": "Independent Bookstore",
            "mins": 3,
            "lat": 40.7343,
            "lng": -74.0007
          },
          {
            "title": "Magnolia Bakery (Original)",
            "kind": "Bakery",
            "mins": 3,
            "lat": 40.7351,
            "lng": -74.0059
          }
        ]
      },
      {
        "id": "bathtub-gin",
        "title": "Bathtub Gin",
        "vibes": [
          "nightlife"
        ],
        "kind": "Speakeasy",
        "area": "New York",
        "hours": "Daily 6:00 PM - 2:00 AM",
        "tags": [
          "Prohibition Era",
          "Chelsea"
        ],
        "description": "Concealed behind an unmarked coffee shop front in Chelsea, Bathtub Gin leans fully into Prohibition-era theming, right down to a freestanding bathtub near the bar as its namesake centerpiece.",
        "lat": 40.7422,
        "lng": -74.0021,
        "nearby": [
          {
            "title": "The High Line",
            "kind": "Elevated Park",
            "mins": 9,
            "lat": 40.748,
            "lng": -74.0048
          },
          {
            "title": "Chelsea Market",
            "kind": "Food Hall",
            "mins": 4,
            "lat": 40.7424,
            "lng": -74.0061
          },
          {
            "title": "Gagosian Gallery (Chelsea)",
            "kind": "Art Gallery",
            "mins": 9,
            "lat": 40.7477,
            "lng": -74.0057
          }
        ]
      },
      {
        "id": "attaboy",
        "title": "Attaboy",
        "vibes": [
          "nightlife"
        ],
        "kind": "Cocktail Bar",
        "area": "New York",
        "hours": "Daily 6:00 PM - 3:00 AM",
        "tags": [
          "No Menu",
          "Lower East Side"
        ],
        "description": "Attaboy operates with no printed menu at all — guests simply describe what they're in the mood for, and bartenders build a custom cocktail on the spot.",
        "lat": 40.7185,
        "lng": -73.9924,
        "nearby": [
          {
            "title": "Katz's Delicatessen",
            "kind": "Deli",
            "mins": 7,
            "lat": 40.7223,
            "lng": -73.9874
          },
          {
            "title": "The Tenement Museum",
            "kind": "Museum",
            "mins": 3,
            "lat": 40.7186,
            "lng": -73.9899
          },
          {
            "title": "Economy Candy",
            "kind": "Candy Shop",
            "mins": 5,
            "lat": 40.7203,
            "lng": -73.9885
          },
          {
            "title": "Essex Market",
            "kind": "Food Market",
            "mins": 5,
            "lat": 40.7182,
            "lng": -73.9878
          }
        ]
      },
      {
        "id": "smalls-jazz-club",
        "title": "Smalls Jazz Club",
        "vibes": [
          "nightlife"
        ],
        "kind": "Jazz Club",
        "area": "New York",
        "hours": "Daily, sets from 7:30 PM, late sets to 4:00 AM weekends",
        "tags": [
          "Intimate",
          "Nightly Sets"
        ],
        "description": "Smalls gives off the authentic feel of a true speakeasy rather than a polished tourist-facing jazz dinner club. The room is compact and unpretentious, with musicians and audience sharing close quarters that make every set feel personal.",
        "lat": 40.7343,
        "lng": -74.0034,
        "nearby": [
          {
            "title": "Washington Square Park",
            "kind": "Park",
            "mins": 8,
            "lat": 40.7308,
            "lng": -73.9973
          },
          {
            "title": "Blue Note Jazz Club",
            "kind": "Jazz Club",
            "mins": 6,
            "lat": 40.7308,
            "lng": -74.0003
          },
          {
            "title": "Three Lives & Company",
            "kind": "Independent Bookstore",
            "mins": 3,
            "lat": 40.7343,
            "lng": -74.0007
          },
          {
            "title": "Magnolia Bakery (Original)",
            "kind": "Bakery",
            "mins": 3,
            "lat": 40.7351,
            "lng": -74.0059
          }
        ]
      },
      {
        "id": "230-fifth-rooftop-bar",
        "title": "230 Fifth Rooftop Bar",
        "vibes": [
          "nightlife"
        ],
        "kind": "Rooftop Bar",
        "area": "New York",
        "hours": "Daily 4:00 PM - 4:00 AM",
        "tags": [
          "Empire State Views",
          "Large Terrace"
        ],
        "description": "One of Manhattan's largest rooftop venues, 230 Fifth wraps a sprawling terrace around unobstructed views of the Empire State Building, close enough that the tower feels like it's practically overhead.",
        "lat": 40.744,
        "lng": -73.9885,
        "nearby": [
          {
            "title": "Madison Square Park",
            "kind": "Park",
            "mins": 2,
            "lat": 40.7424,
            "lng": -73.9877
          },
          {
            "title": "Eataly NYC Flatiron",
            "kind": "Food Hall",
            "mins": 3,
            "lat": 40.742,
            "lng": -73.9903
          },
          {
            "title": "The NoMad Bar",
            "kind": "Cocktail Bar",
            "mins": 1,
            "lat": 40.744,
            "lng": -73.9895
          }
        ]
      },
      {
        "id": "apotheke-nomad",
        "title": "Apotheke NoMad",
        "vibes": [
          "nightlife"
        ],
        "kind": "Speakeasy",
        "area": "New York",
        "hours": "Tue-Sat 6:00 PM - 1:00 AM, Closed Sun-Mon",
        "tags": [
          "Live Jazz",
          "Penthouse Terrace"
        ],
        "description": "A NoMad offshoot of the original Chinatown apothecary-themed speakeasy, this location remains comparatively under-the-radar despite opening in 2022.",
        "lat": 40.746,
        "lng": -73.9885,
        "nearby": [
          {
            "title": "Madison Square Park",
            "kind": "Park",
            "mins": 5,
            "lat": 40.7424,
            "lng": -73.9877
          },
          {
            "title": "Eataly NYC Flatiron",
            "kind": "Food Hall",
            "mins": 6,
            "lat": 40.742,
            "lng": -73.9903
          },
          {
            "title": "The NoMad Bar",
            "kind": "Cocktail Bar",
            "mins": 3,
            "lat": 40.744,
            "lng": -73.9895
          }
        ]
      },
      {
        "id": "employees-only",
        "title": "Employees Only",
        "vibes": [
          "nightlife"
        ],
        "kind": "Cocktail Bar",
        "area": "New York",
        "hours": "Daily 6:00 PM - 4:00 AM",
        "tags": [
          "Speakeasy Style",
          "Since 2004"
        ],
        "description": "One of the bars credited with kickstarting New York's modern speakeasy revival back in 2004, Employees Only is entered past a psychic reader sitting in the front window, a deliberate bit of theater before the actual bar opens up behind a…",
        "lat": 40.7328,
        "lng": -74.006,
        "nearby": [
          {
            "title": "Washington Square Park",
            "kind": "Park",
            "mins": 10,
            "lat": 40.7308,
            "lng": -73.9973
          },
          {
            "title": "Blue Note Jazz Club",
            "kind": "Jazz Club",
            "mins": 7,
            "lat": 40.7308,
            "lng": -74.0003
          },
          {
            "title": "Three Lives & Company",
            "kind": "Independent Bookstore",
            "mins": 6,
            "lat": 40.7343,
            "lng": -74.0007
          },
          {
            "title": "Magnolia Bakery (Original)",
            "kind": "Bakery",
            "mins": 3,
            "lat": 40.7351,
            "lng": -74.0059
          }
        ]
      },
      {
        "id": "the-django",
        "title": "The Django",
        "vibes": [
          "nightlife"
        ],
        "kind": "Jazz Club",
        "area": "New York",
        "hours": "Wed-Sat, sets from 7:30 PM",
        "tags": [
          "Supper Club",
          "Art Deco"
        ],
        "description": "A subterranean jazz supper club inside the Roxy Hotel in Tribeca, styled after 1920s Parisian jazz clubs with Art Deco lighting and velvet booths built for both dinner and a full night of live sets.",
        "lat": 40.7192,
        "lng": -74.0055,
        "nearby": [
          {
            "title": "City Hall Park",
            "kind": "Park",
            "mins": 9,
            "lat": 40.7127,
            "lng": -74.0059
          },
          {
            "title": "Tribeca Grill",
            "kind": "Restaurant",
            "mins": 5,
            "lat": 40.7196,
            "lng": -74.01
          }
        ]
      },
      {
        "id": "house-of-yes",
        "title": "House of Yes",
        "vibes": [
          "nightlife"
        ],
        "kind": "Nightclub & Performance Venue",
        "area": "Brooklyn",
        "hours": "Thu-Sat, hours vary by event",
        "tags": [
          "Immersive",
          "Circus Performances"
        ],
        "description": "An immersive, performance-fueled nightclub in Bushwick built around cage dancers, cabaret, live music, and elaborately themed parties that regularly sell out.",
        "lat": 40.7057,
        "lng": -73.9204,
        "nearby": [
          {
            "title": "The Bushwick Collective",
            "kind": "Street Art",
            "mins": 4,
            "lat": 40.7037,
            "lng": -73.9231
          },
          {
            "title": "Roberta's Pizza",
            "kind": "Pizzeria",
            "mins": 14,
            "lat": 40.7051,
            "lng": -73.9335
          }
        ]
      },
      {
        "id": "beauty-essex",
        "title": "Beauty & Essex",
        "vibes": [
          "nightlife"
        ],
        "kind": "Cocktail Lounge",
        "area": "New York",
        "hours": "Daily 5:30 PM - 2:00 AM",
        "tags": [
          "Hidden Behind Pawn Shop",
          "Multi-Level"
        ],
        "description": "Entered through a working pawn shop storefront on Essex Street, Beauty & Essex opens into a sprawling, multi-level lounge with private booths, a champagne room, and a full dinner menu alongside its cocktail program.",
        "lat": 40.7189,
        "lng": -73.9878,
        "nearby": [
          {
            "title": "Katz's Delicatessen",
            "kind": "Deli",
            "mins": 5,
            "lat": 40.7223,
            "lng": -73.9874
          },
          {
            "title": "The Tenement Museum",
            "kind": "Museum",
            "mins": 2,
            "lat": 40.7186,
            "lng": -73.9899
          },
          {
            "title": "Economy Candy",
            "kind": "Candy Shop",
            "mins": 2,
            "lat": 40.7203,
            "lng": -73.9885
          },
          {
            "title": "Essex Market",
            "kind": "Food Market",
            "mins": 1,
            "lat": 40.7182,
            "lng": -73.9878
          }
        ]
      },
      {
        "id": "westlight",
        "title": "Westlight",
        "vibes": [
          "nightlife"
        ],
        "kind": "Rooftop Bar",
        "area": "Brooklyn",
        "hours": "Daily 4:00 PM - 1:00 AM (seasonal)",
        "tags": [
          "Skyline Views",
          "22nd Floor"
        ],
        "description": "A 22nd-floor rooftop bar atop the William Vale Hotel, offering some of the widest panoramic views in Brooklyn, stretching from the Manhattan skyline to the harbor and beyond.",
        "lat": 40.7217,
        "lng": -73.9578,
        "nearby": [
          {
            "title": "Domino Park",
            "kind": "Waterfront Park",
            "mins": 9,
            "lat": 40.7178,
            "lng": -73.9647
          },
          {
            "title": "Bedford Avenue Shopping Strip",
            "kind": "Shopping District",
            "mins": 6,
            "lat": 40.7173,
            "lng": -73.9583
          }
        ]
      },
      {
        "id": "le-bain",
        "title": "Le Bain",
        "vibes": [
          "nightlife"
        ],
        "kind": "Rooftop Nightclub",
        "area": "New York",
        "hours": "Thu-Sat 10:00 PM - 4:00 AM (seasonal rooftop)",
        "tags": [
          "Rooftop Pool",
          "Meatpacking District"
        ],
        "description": "Atop the Standard Hotel in the Meatpacking District, Le Bain combines a dance floor, a hot tub, and a rooftop deck with unobstructed views over the Hudson River and High Line below.",
        "lat": 40.7406,
        "lng": -74.0088,
        "nearby": [
          {
            "title": "Whitney Museum of American Art",
            "kind": "Art Museum",
            "mins": 1,
            "lat": 40.7396,
            "lng": -74.0089
          },
          {
            "title": "Pastis",
            "kind": "French Brasserie",
            "mins": 2,
            "lat": 40.7392,
            "lng": -74.0079
          }
        ]
      },
      {
        "id": "the-back-room",
        "title": "The Back Room",
        "vibes": [
          "nightlife"
        ],
        "kind": "Speakeasy",
        "area": "New York",
        "hours": "Daily 8:00 PM - 4:00 AM",
        "tags": [
          "Prohibition-Era Original",
          "Fake Storefront"
        ],
        "description": "Entered through an unmarked door behind a fake storefront reading Lower East Side Toy Company, then down an alley and up a back staircase, The Back Room occupies a space that operated as an actual Prohibition-era speakeasy in the 1920s.",
        "lat": 40.7195,
        "lng": -73.9884,
        "nearby": [
          {
            "title": "Katz's Delicatessen",
            "kind": "Deli",
            "mins": 4,
            "lat": 40.7223,
            "lng": -73.9874
          },
          {
            "title": "The Tenement Museum",
            "kind": "Museum",
            "mins": 2,
            "lat": 40.7186,
            "lng": -73.9899
          },
          {
            "title": "Economy Candy",
            "kind": "Candy Shop",
            "mins": 1,
            "lat": 40.7203,
            "lng": -73.9885
          },
          {
            "title": "Essex Market",
            "kind": "Food Market",
            "mins": 2,
            "lat": 40.7182,
            "lng": -73.9878
          }
        ]
      },
      {
        "id": "dear-irving-on-hudson",
        "title": "Dear Irving on Hudson",
        "vibes": [
          "nightlife"
        ],
        "kind": "Rooftop Bar",
        "area": "New York",
        "hours": "Daily 5:00 PM - 1:00 AM (seasonal rooftop)",
        "tags": [
          "Skyline Views",
          "Craft Cocktails"
        ],
        "description": "Dear Irving on Hudson pairs polished cocktail craft with genuinely romantic rooftop seating designed around individual seating stations, each angled to feel like its own private nook.",
        "lat": 40.7401,
        "lng": -74.0024,
        "nearby": [
          {
            "title": "The High Line",
            "kind": "Elevated Park",
            "mins": 11,
            "lat": 40.748,
            "lng": -74.0048
          },
          {
            "title": "Chelsea Market",
            "kind": "Food Hall",
            "mins": 5,
            "lat": 40.7424,
            "lng": -74.0061
          },
          {
            "title": "Gagosian Gallery (Chelsea)",
            "kind": "Art Gallery",
            "mins": 11,
            "lat": 40.7477,
            "lng": -74.0057
          }
        ]
      },
      {
        "id": "central-park-conservatory-garden",
        "title": "Central Park Conservatory Garden",
        "vibes": [
          "nature"
        ],
        "kind": "Garden",
        "area": "Central Park",
        "hours": "Daily 8:00 AM - Dusk",
        "tags": [
          "Formal Garden",
          "Quiet Escape"
        ],
        "description": "Tucked into the northern reaches of Central Park, the Conservatory Garden is the park's only formal garden, with Italian, French, and English sections offering manicured lawns, wisteria-draped pergolas, and fountains far removed from the…",
        "lat": 40.7938,
        "lng": -73.9531,
        "nearby": [
          {
            "title": "Belvedere Castle",
            "kind": "Viewpoint",
            "mins": 26,
            "lat": 40.7794,
            "lng": -73.9691
          },
          {
            "title": "The Loch (Central Park North Woods)",
            "kind": "Stream & Woodland",
            "mins": 4,
            "lat": 40.7963,
            "lng": -73.9538
          },
          {
            "title": "Central Park Zoo",
            "kind": "Zoo",
            "mins": 41,
            "lat": 40.7678,
            "lng": -73.9718
          }
        ]
      },
      {
        "id": "the-ramble-central-park",
        "title": "The Ramble (Central Park)",
        "vibes": [
          "nature"
        ],
        "kind": "Woodland",
        "area": "Central Park",
        "hours": "Daily 6:00 AM - 1:00 AM",
        "tags": [
          "Bird Watching",
          "Wooded Trails"
        ],
        "description": "A deliberately wild, 36-acre woodland at the center of Central Park, designed by Olmsted and Vaux to feel like a rustic mountain forest rather than a manicured city park.",
        "lat": 40.7772,
        "lng": -73.9663,
        "nearby": [
          {
            "title": "Belvedere Castle",
            "kind": "Viewpoint",
            "mins": 4,
            "lat": 40.7794,
            "lng": -73.9691
          },
          {
            "title": "The Loch (Central Park North Woods)",
            "kind": "Stream & Woodland",
            "mins": 30,
            "lat": 40.7963,
            "lng": -73.9538
          },
          {
            "title": "Central Park Zoo",
            "kind": "Zoo",
            "mins": 14,
            "lat": 40.7678,
            "lng": -73.9718
          }
        ]
      },
      {
        "id": "the-high-line",
        "title": "The High Line",
        "vibes": [
          "nature"
        ],
        "kind": "Elevated Park",
        "area": "High Line",
        "hours": "Daily 7:00 AM - 10:00 PM (seasonal)",
        "tags": [
          "Urban Nature",
          "Art Walk"
        ],
        "description": "Built atop a disused elevated freight rail line, the High Line transformed 1.45 miles of industrial infrastructure into one of the most distinctive parks in the world.",
        "lat": 40.748,
        "lng": -74.0048,
        "nearby": [
          {
            "title": "Little Island",
            "kind": "Park",
            "mins": 13,
            "lat": 40.7406,
            "lng": -74.0116
          },
          {
            "title": "Hudson River Park (Chelsea Piers)",
            "kind": "Waterfront Park",
            "mins": 4,
            "lat": 40.748,
            "lng": -74.0088
          }
        ]
      },
      {
        "id": "fort-tryon-park",
        "title": "Fort Tryon Park",
        "vibes": [
          "nature"
        ],
        "kind": "Park",
        "area": "Fort Tryon Park",
        "hours": "Daily 6:00 AM - 1:00 AM",
        "tags": [
          "Hudson Views",
          "Hidden Gem"
        ],
        "description": "Perched 250 feet above the Hudson River in upper Manhattan, Fort Tryon Park is routinely overlooked by visitors who never make it past Midtown.",
        "lat": 40.8613,
        "lng": -73.9317,
        "nearby": [
          {
            "title": "The Met Cloisters",
            "kind": "Museum",
            "mins": 5,
            "lat": 40.8648,
            "lng": -73.9317
          },
          {
            "title": "Shorakapok Rock & Salt Marsh",
            "kind": "Natural Landmark",
            "mins": 15,
            "lat": 40.8699,
            "lng": -73.9236
          },
          {
            "title": "Dyckman Farmhouse Museum",
            "kind": "Historic House Museum",
            "mins": 10,
            "lat": 40.8664,
            "lng": -73.9256
          }
        ]
      },
      {
        "id": "riverside-park",
        "title": "Riverside Park",
        "vibes": [
          "nature"
        ],
        "kind": "Park",
        "area": "Riverside Park",
        "hours": "Daily 6:00 AM - 1:00 AM",
        "tags": [
          "Hudson River Views",
          "Quieter Alternative"
        ],
        "description": "Running along the Hudson River for over four miles, Riverside Park offers a genuinely quieter, more residential alternative to Central Park, with sweeping river views, cherry blossom groves, and the historic Soldiers' and Sailors' Monume…",
        "lat": 40.7959,
        "lng": -73.9789,
        "nearby": [
          {
            "title": "Grant's Tomb (General Grant National Memorial)",
            "kind": "Monument",
            "mins": 30,
            "lat": 40.8134,
            "lng": -73.9627
          },
          {
            "title": "79th Street Boat Basin",
            "kind": "Marina",
            "mins": 13,
            "lat": 40.7871,
            "lng": -73.9838
          }
        ]
      },